index,city,Lat,Lon,max_temp,Humidity,Cloudiness,Wind Speed,Country,Date
442,Sūsangerd,31.5608,48.1831,42.01,6.0,0.0,9.63,IR,1627492623.0
95,Adrar,20.5022,-10.0711,42.78,10.0,66.0,4.56,MR,1627492579.0
78,Taoudenni,22.6783,-3.9836,45.29,10.0,24.0,4.1,ML,1627492576.0
438,Nālūt,30.3333,10.85,36.53,11.0,0.0,5.21,LY,1627492622.0
535,Buraidah,26.326,43.975,38.72,11.0,10.0,4.45,SA,1627492132.0
431,Farah,32.5,62.5,34.16,12.0,26.0,1.97,AF,1627492621.0
344,Abnūb,27.2696,31.1511,35.18,13.0,40.0,5.12,EG,1627492609.0
42,Jalu,29.0331,21.5482,35.95,15.0,0.0,4.6,LY,1627492570.0
286,Arys,42.4252,68.795,28.12,15.0,0.0,6.39,KZ,1627492602.0
172,Shache,38.4167,77.2406,30.94,15.0,6.0,4.68,CN,1627492588.0
547,Copiapó,-27.3667,-70.3333,11.83,16.0,0.0,2.5,CL,1627492639.0
96,Awjilah,29.1081,21.2869,35.76,16.0,0.0,4.6,LY,1627492579.0
464,Yumen,40.2833,97.2,27.14,17.0,0.0,5.4,CN,1627492625.0
366,Korla,41.7597,86.1469,33.11,19.0,40.0,2.27,CN,1627492612.0
619,Fasa,28.9383,53.6482,32.58,21.0,20.0,0.0,IR,1627492648.0
240,Neepawa,50.2289,-99.4664,27.22,23.0,97.0,8.0,CA,1627492597.0
76,Bilma,18.6853,12.9164,37.88,23.0,100.0,3.74,NE,1627492575.0
519,Rapid Valley,44.0625,-103.1463,36.78,24.0,1.0,2.68,US,1627492633.0
300,Demba,-5.51,22.2667,26.06,24.0,9.0,1.23,CD,1627492506.0
379,Villarrica,-25.75,-56.4333,15.32,24.0,0.0,5.47,PY,1627492614.0
177,Vera Cruz,-12.6333,-41.0333,29.76,25.0,17.0,0.63,BR,1627492589.0
336,Ladário,-19.0047,-57.6017,17.05,26.0,75.0,5.14,BR,1627492609.0
294,Conceição do Araguaia,-8.2578,-49.2647,35.07,26.0,0.0,2.06,BR,1627492603.0
123,Kidal,18.4411,1.4078,37.42,26.0,58.0,4.31,ML,1627492582.0
603,Sexsmith,55.35,-118.786,21.64,28.0,20.0,4.63,CA,1627492646.0
605,Lodja,-3.4833,23.4333,27.29,28.0,49.0,0.87,CD,1627492646.0
113,Lábrea,-7.2586,-64.7981,36.2,28.0,55.0,1.67,BR,1627492581.0
445,Irpa Irpa,-17.7167,-66.2667,24.0,29.0,10.0,3.26,BO,1627492623.0
382,Lubango,-14.9172,13.4925,16.68,29.0,9.0,2.77,AO,1627492615.0
254,Khovd,48.0056,91.6419,18.71,29.0,0.0,0.1,MN,1627492598.0
568,Shaunavon,49.6501,-108.4181,17.88,29.0,100.0,4.15,CA,1627492641.0
331,Boissevain,49.2306,-100.0559,24.28,30.0,99.0,7.52,CA,1627492608.0
467,San Juan,-31.5375,-68.5364,10.38,30.0,0.0,1.46,AR,1627492431.0
218,Winnemucca,40.973,-117.7357,28.39,30.0,1.0,2.06,US,1627492594.0
299,Inyonga,-6.7167,32.0667,21.35,31.0,22.0,1.71,TZ,1627492604.0
602,Shelui,-4.3667,34.2,25.36,31.0,39.0,2.25,TZ,1627492646.0
183,Ewo,-0.8725,14.8206,31.34,31.0,91.0,2.12,CG,1627492590.0
385,Castlewood,39.5847,-104.9011,33.38,32.0,1.0,0.45,US,1627492615.0
114,Chapais,49.7834,-74.8492,17.88,32.0,9.0,2.94,CA,1627492581.0
499,Anguillara Sabazia,42.0875,12.2767,34.26,32.0,26.0,4.18,IT,1627492630.0
289,Karasburg,-28.0167,18.75,12.5,32.0,0.0,5.47,NA,1627492603.0
36,San Luis,-33.295,-66.3356,8.47,32.0,0.0,2.75,AR,1627492352.0
260,Yangi Marg`ilon,40.4272,71.7189,28.4,34.0,1.0,3.09,UZ,1627492599.0
480,Umeå,63.8284,20.2597,26.96,34.0,0.0,4.63,SE,1627492627.0
444,Panjāb,34.388,67.0233,18.61,34.0,0.0,3.04,AF,1627492623.0
406,Santa Maria da Boa Vista,-8.8078,-39.8256,31.74,34.0,4.0,3.63,BR,1627492618.0
591,Carbonia,39.1672,8.5222,31.53,34.0,0.0,2.49,IT,1627492644.0
259,Oriximiná,-1.7656,-55.8661,34.5,34.0,3.0,2.91,BR,1627492599.0
219,Talcahuano,-36.7167,-73.1167,16.82,34.0,0.0,5.14,CL,1627492594.0
271,Mumbwa,-14.9783,27.0619,16.46,35.0,13.0,2.35,ZM,1627492600.0
85,Saint George,37.1041,-113.5841,34.74,35.0,29.0,0.45,US,1627492577.0
277,Spirit River,55.7833,-118.8361,22.29,36.0,64.0,4.17,CA,1627492601.0
162,Porto Walter,-8.2686,-72.7439,35.41,37.0,43.0,0.46,BR,1627492587.0
583,Deep River,46.1001,-77.4995,23.02,37.0,21.0,0.89,CA,1627492488.0
324,Blythe,33.6103,-114.5964,37.8,38.0,1.0,2.06,US,1627492607.0
570,Sur,22.5667,59.5289,37.35,38.0,99.0,4.72,OM,1627492641.0
360,Urcos,-13.6861,-71.6228,15.94,38.0,70.0,3.6,PE,1627492612.0
56,Castro,-24.7911,-50.0119,10.7,38.0,54.0,4.68,BR,1627492572.0
500,Province of Trapani,37.8333,12.6667,37.62,38.0,0.0,2.36,IT,1627492449.0
205,General Pico,-35.6566,-63.7568,9.56,39.0,3.0,4.08,AR,1627492494.0
127,Agía Galíni,35.1,24.6833,32.08,39.0,0.0,0.89,GR,1627492583.0
43,Kropotkin,45.4375,40.5756,24.4,39.0,7.0,3.16,RU,1627492493.0
252,Lata,40.1629,-8.3327,32.8,39.0,0.0,4.97,PT,1627492598.0
551,Rodrigues Alves,-7.738,-72.6509,33.11,39.0,6.0,0.49,BR,1627492639.0
97,Pemberton,50.3164,-122.8027,30.67,40.0,0.0,0.68,CA,1627492579.0
302,Toktogul,41.8708,72.9402,25.73,40.0,2.0,0.37,KG,1627492604.0
413,La Santisima Trinidad,-14.8333,-64.9,19.99,40.0,75.0,8.23,BO,1627492619.0
483,Bosaso,11.2842,49.1816,32.97,40.0,90.0,10.05,SO,1627492627.0
542,Jacareacanga,-6.2222,-57.7528,34.17,40.0,20.0,2.06,BR,1627492638.0
63,Constitución,-35.3333,-72.4167,13.95,40.0,0.0,1.09,CL,1627492573.0
380,Molteno,-31.3968,26.3625,9.6,40.0,25.0,4.46,ZA,1627492614.0
597,Rovaniemi,66.5,25.7167,25.67,41.0,0.0,3.09,FI,1627492501.0
505,Hearst,49.6835,-83.6665,23.14,41.0,100.0,4.9,CA,1627492631.0
423,Rawson,-43.3002,-65.1023,10.62,41.0,19.0,5.92,AR,1627492620.0
498,Farmington,36.7281,-108.2187,28.76,41.0,1.0,0.0,US,1627492630.0
200,Kumluca,36.3703,30.2869,31.8,43.0,0.0,2.38,TR,1627492592.0
525,Novoukrainskiy,44.8969,38.0522,25.48,43.0,14.0,3.61,RU,1627492634.0
335,Kondoa,-4.9,35.7833,19.25,43.0,33.0,2.32,TZ,1627492608.0
604,San Angelo,31.4638,-100.437,33.86,43.0,1.0,1.34,US,1627492646.0
601,Eskişehir,39.7767,30.5206,26.95,44.0,0.0,5.14,TR,1627492646.0
458,Grand-Santi,4.25,-54.3833,33.08,44.0,24.0,1.85,GF,1627492624.0
432,Kapoeta,4.7717,33.5903,28.09,44.0,100.0,3.62,SS,1627492621.0
57,Oyón,-10.6681,-76.7731,13.26,44.0,82.0,3.39,PE,1627492572.0
383,Ndendé,-2.4008,11.3581,29.76,45.0,41.0,1.77,GA,1627492615.0
179,Parry Sound,45.3501,-80.033,24.56,46.0,78.0,2.18,CA,1627492589.0
194,Wajid,3.8093,43.2471,27.19,46.0,100.0,7.73,SO,1627492591.0
482,Magnolia,33.2671,-93.2393,33.59,46.0,84.0,2.42,US,1627492627.0
264,Glendive,47.1053,-104.7125,28.35,47.0,1.0,7.72,US,1627492600.0
229,Santa Teresa del Tuy,10.2341,-66.6631,32.45,47.0,32.0,2.23,VE,1627492595.0
224,Viedma,-40.8135,-62.9967,10.28,47.0,16.0,4.46,AR,1627492595.0
230,Kamenka,51.3223,42.7678,22.49,48.0,73.0,1.83,RU,1627492595.0
456,Ulladulla,-35.35,150.4667,11.72,48.0,0.0,4.86,AU,1627492624.0
343,Zhigansk,66.7697,123.3711,12.77,48.0,2.0,3.04,RU,1627492418.0
598,Barra do Garças,-15.89,-52.2567,29.32,48.0,0.0,4.12,BR,1627492645.0
164,San Patricio,28.017,-97.5169,33.26,49.0,8.0,2.36,US,1627492587.0
469,Bumba,2.1833,22.4667,27.16,49.0,96.0,1.15,CD,1627492626.0
590,Oktyabr'skiy,54.4815,53.471,14.88,50.0,5.0,1.78,RU,1627492644.0
511,Lebanon,36.2081,-86.2911,34.14,50.0,1.0,2.57,US,1627492632.0
253,Fortuna,40.5982,-124.1573,13.19,50.0,26.0,1.97,US,1627492361.0
134,Baní,18.2833,-70.3333,31.69,50.0,26.0,7.43,DO,1627492584.0
470,Port-Cartier,50.0334,-66.8654,17.64,50.0,96.0,3.48,CA,1627492626.0
434,Ilulissat,69.2167,-51.1,12.01,50.0,75.0,2.57,GL,1627492621.0
552,Stephenville,32.2207,-98.2023,33.47,51.0,1.0,0.0,US,1627492639.0
213,Leh,34.1667,77.5833,19.78,51.0,100.0,2.82,IN,1627492593.0
560,Wharton,29.3116,-96.1027,33.94,51.0,40.0,0.0,US,1627492640.0
111,Salta,-24.7859,-65.4117,8.65,51.0,96.0,1.79,AR,1627492433.0
151,Laguna,38.421,-121.4238,36.47,51.0,1.0,0.89,US,1627492586.0
582,La Ronge,55.1001,-105.2842,19.14,52.0,20.0,3.09,CA,1627492643.0
174,Thompson,55.7435,-97.8558,19.09,52.0,40.0,6.17,CA,1627492589.0
312,San Ramon,37.7799,-121.978,28.93,53.0,1.0,0.89,US,1627492605.0
363,Kutum,14.2,24.6667,26.88,53.0,100.0,2.43,SD,1627492612.0
559,Eagle Pass,28.7091,-100.4995,32.37,53.0,20.0,2.57,US,1627492640.0
403,San Jose,37.3394,-121.895,29.49,53.0,75.0,0.0,US,1627492415.0
211,Sandnessjøen,66.0217,12.6316,27.29,53.0,0.0,5.14,NO,1627492593.0
250,Khatanga,71.9667,102.5,24.94,53.0,99.0,4.87,RU,1627492598.0
153,Sakhnovshchyna,49.1517,35.872,25.96,53.0,62.0,3.25,UA,1627492320.0
25,Saskylakh,71.9167,114.0833,15.23,53.0,69.0,4.72,RU,1627492388.0
378,Xicoténcatl,23.0167,-98.8833,32.06,54.0,59.0,0.64,MX,1627492614.0
146,Dillon,34.4166,-79.3712,33.47,54.0,94.0,1.78,US,1627492585.0
237,Bāpatla,15.9,80.4667,31.5,54.0,100.0,5.64,IN,1627492596.0
307,Minden,52.2833,8.9167,24.46,54.0,20.0,6.69,DE,1627492534.0
337,Antofagasta,-23.65,-70.4,17.34,55.0,36.0,3.49,CL,1627492352.0
171,Margate,51.3813,1.3862,20.39,56.0,27.0,3.58,GB,1627492588.0
569,Necochea,-38.5473,-58.7368,8.35,56.0,98.0,7.62,AR,1627492641.0
198,Pedernales,18.0384,-71.744,31.45,56.0,46.0,2.82,DO,1627492591.0
450,Rohnert Park,38.3396,-122.7011,34.27,56.0,90.0,0.0,US,1627492624.0
451,Lincoln,40.8,-96.667,36.12,56.0,1.0,2.24,US,1627492624.0
180,Bethel,41.3712,-73.414,26.72,57.0,75.0,0.89,US,1627492589.0
355,Chambersburg,39.9376,-77.6611,32.24,57.0,1.0,2.24,US,1627492510.0
416,Flinders,-34.5833,150.8552,12.34,57.0,1.0,0.89,AU,1627492619.0
21,Maceió,-9.6658,-35.7353,28.69,57.0,40.0,3.09,BR,1627492568.0
73,Krasnoborsk,61.5598,45.934,15.94,57.0,41.0,2.55,RU,1627492575.0
593,Novopokrovka,49.8425,36.5477,27.21,57.0,77.0,2.6,UA,1627492645.0
395,Moussoro,13.6408,16.4901,28.72,57.0,90.0,2.52,TD,1627492616.0
546,Gumdag,39.2061,54.5906,28.78,58.0,28.0,6.3,TM,1627492638.0
584,Iquitos,-3.7481,-73.2472,32.02,58.0,75.0,1.03,PE,1627492643.0
412,La Romana,18.4273,-68.9728,32.2,58.0,40.0,7.72,DO,1627492397.0
55,Yulara,-25.2406,130.9889,12.91,58.0,1.0,4.12,AU,1627492572.0
278,Natal,-5.795,-35.2094,30.36,58.0,40.0,6.69,BR,1627492479.0
537,Langenzenn,49.5,10.8,23.36,58.0,20.0,0.45,DE,1627492637.0
103,Lebu,-37.6167,-73.65,12.61,58.0,0.0,7.57,CL,1627492580.0
536,Avera,33.194,-82.5271,32.6,58.0,76.0,1.44,US,1627492637.0
67,Sechura,-5.5569,-80.8222,25.14,58.0,86.0,5.08,PE,1627492574.0
554,Pascagoula,30.3658,-88.5561,34.0,59.0,1.0,0.0,US,1627492639.0
262,Venezuela,8.0,-66.0,30.81,59.0,40.0,4.15,VE,1627492599.0
521,Gander,48.9682,-54.5906,26.07,59.0,90.0,5.81,CA,1627492633.0
572,Rome,43.2128,-75.4557,24.36,59.0,1.0,0.45,US,1627491877.0
251,Taltal,-25.4,-70.4833,16.86,59.0,0.0,2.25,CL,1627492598.0
325,Pudozh,61.8099,36.5345,21.91,59.0,38.0,1.23,RU,1627492489.0
23,Acaraú,-2.8856,-40.12,30.89,59.0,9.0,8.44,BR,1627492568.0
50,Camocim,-2.9022,-40.8411,30.99,59.0,14.0,6.91,BR,1627492571.0
181,Yerbogachën,61.2767,108.0108,21.65,59.0,0.0,4.09,RU,1627492589.0
214,Cabo San Lucas,22.8909,-109.9124,35.28,60.0,1.0,0.45,MX,1627492572.0
216,Palmer,42.1584,-72.3287,26.11,60.0,75.0,0.89,US,1627492594.0
303,Rocky Mountain House,52.3668,-114.9188,21.06,60.0,0.0,4.12,CA,1627492604.0
397,Ola,59.5833,151.2833,11.57,60.0,98.0,5.04,RU,1627492616.0
117,Cidreira,-30.1811,-50.2056,10.33,60.0,52.0,9.5,BR,1627492582.0
362,Świnoujście,53.9105,14.2471,24.54,60.0,0.0,5.66,PL,1627492453.0
19,Cape Town,-33.9258,18.4232,13.82,60.0,37.0,2.68,ZA,1627492219.0
600,The Pas,53.8251,-101.2541,21.01,60.0,40.0,6.01,CA,1627492645.0
267,Saint Anthony,45.0205,-93.218,29.52,60.0,40.0,2.24,US,1627492600.0
15,Jamestown,42.097,-79.2353,26.77,60.0,20.0,1.54,US,1627492355.0
305,Talara,-4.5772,-81.2719,25.42,61.0,0.0,9.26,PE,1627492605.0
188,Defiance,41.3334,-84.45,30.11,61.0,1.0,2.57,US,1627492590.0
0,Ribeira Grande,38.5167,-28.7,26.22,61.0,20.0,6.69,PT,1627492564.0
248,Rosemount,44.7394,-93.1258,29.46,61.0,1.0,1.79,US,1627492598.0
115,Albany,42.6001,-73.9662,25.05,61.0,74.0,0.45,US,1627492581.0
167,São João da Barra,-21.6403,-41.0511,26.05,61.0,11.0,6.83,BR,1627492588.0
571,Broome,42.2506,-75.833,24.28,61.0,40.0,0.89,US,1627492642.0
430,Pangnirtung,66.1451,-65.7125,12.0,62.0,75.0,6.69,CA,1627492621.0
91,El Salvador,13.8333,-88.9167,27.25,62.0,75.0,0.59,SV,1627492578.0
126,Vao,-22.6667,167.4833,20.45,62.0,93.0,7.73,NC,1627492583.0
524,Richards Bay,-28.783,32.0377,17.13,62.0,0.0,1.66,ZA,1627492634.0
387,Barber,12.2833,-69.0667,31.99,62.0,40.0,5.14,CW,1627492615.0
375,Comodoro Rivadavia,-45.8667,-67.5,12.92,62.0,0.0,2.06,AR,1627492525.0
328,Alice Springs,-23.7,133.8833,11.75,62.0,2.0,0.0,AU,1627492380.0
169,Weinan,34.5036,109.5089,22.83,62.0,21.0,1.04,CN,1627492588.0
611,Magadan,59.5667,150.8,10.88,62.0,94.0,4.99,RU,1627492647.0
377,Sept-Îles,50.2001,-66.3821,17.81,63.0,90.0,3.13,CA,1627492614.0
116,Carnarvon,-24.8667,113.6333,18.04,63.0,75.0,4.63,AU,1627492351.0
523,Komsomolets,53.7453,62.0708,12.1,63.0,23.0,3.62,KZ,1627492633.0
558,Revda,56.801,59.9303,10.45,63.0,98.0,2.25,RU,1627492640.0
135,Mar del Plata,-38.0023,-57.5575,9.49,63.0,75.0,5.36,AR,1627492584.0
256,Fayaoué,-20.65,166.5333,21.94,63.0,100.0,6.45,NC,1627492599.0
166,Healdsburg,38.6105,-122.8692,35.5,63.0,1.0,0.0,US,1627492588.0
446,Kihurio,-4.4667,38.0667,21.3,64.0,49.0,1.57,TZ,1627492623.0
186,Kiryat Gat,31.61,34.7642,29.34,64.0,0.0,3.23,IL,1627492590.0
612,Sugar Hill,34.1065,-84.0335,34.17,64.0,40.0,1.54,US,1627492647.0
176,Airai,-8.9266,125.4092,13.83,64.0,3.0,1.4,TL,1627492589.0
357,Saldanha,-33.0117,17.9442,12.19,64.0,13.0,3.36,ZA,1627492611.0
599,Dunedin,-45.8742,170.5036,9.89,65.0,50.0,3.58,NZ,1627492524.0
10,Tamandaré,-8.7597,-35.1047,26.62,65.0,22.0,3.64,BR,1627492566.0
485,Hueytown,33.4512,-86.9967,33.8,65.0,20.0,1.54,US,1627492628.0
618,Chivilcoy,-34.8957,-60.0167,9.97,65.0,85.0,6.71,AR,1627492648.0
255,Santa Maria,-29.6842,-53.8069,8.37,65.0,47.0,7.1,BR,1627492441.0
448,Olonets,60.9847,32.9698,21.56,65.0,100.0,3.74,RU,1627492623.0
100,Hargeisa,9.56,44.065,19.18,65.0,96.0,13.15,SO,1627492579.0
208,Schwedt,53.0596,14.2815,25.33,65.0,100.0,3.2,DE,1627492593.0
391,Santa Cruz Cabrália,-16.2781,-39.0247,28.13,65.0,20.0,6.17,BR,1627492616.0
195,Conde,-7.2597,-34.9075,28.7,65.0,40.0,5.66,BR,1627492591.0
168,Belmonte,-15.8631,-38.8828,28.28,65.0,1.0,4.79,BR,1627492588.0
147,Vila Velha,-20.3297,-40.2925,26.65,65.0,0.0,6.17,BR,1627492342.0
353,Barra dos Coqueiros,-10.9089,-37.0386,28.01,65.0,20.0,4.12,BR,1627492611.0
122,Cam Ranh,11.9214,109.1591,29.98,66.0,20.0,1.03,VN,1627492582.0
13,Poum,-20.2333,164.0167,22.24,66.0,61.0,8.51,NC,1627492566.0
30,Bredasdorp,-34.5322,20.0403,11.82,66.0,44.0,1.03,ZA,1627492569.0
59,Iqaluit,63.7506,-68.5145,8.72,66.0,21.0,2.24,CA,1627492353.0
486,São José da Coroa Grande,-8.8978,-35.1478,26.34,66.0,16.0,3.47,BR,1627492628.0
414,Roebourne,-20.7833,117.1333,20.51,66.0,22.0,5.18,AU,1627492619.0
428,Acapulco de Juárez,16.8634,-99.8901,29.9,66.0,75.0,1.54,MX,1627492424.0
170,Miraflores,19.2167,-98.8083,20.57,66.0,83.0,0.95,MX,1627492588.0
606,Merritt Island,28.5392,-80.672,33.41,67.0,40.0,1.54,US,1627492646.0
381,Griffith,41.5284,-87.4237,32.27,67.0,1.0,0.45,US,1627492614.0
14,Yellowknife,62.456,-114.3525,17.94,67.0,75.0,0.45,CA,1627492566.0
361,Bako,5.7833,36.5667,19.35,67.0,99.0,1.68,ET,1627492612.0
594,Yanam,16.7333,82.2167,28.9,67.0,100.0,2.58,IN,1627492645.0
228,Bay Saint Louis,30.3088,-89.33,34.04,67.0,40.0,0.0,US,1627492595.0
553,Coruripe,-10.1256,-36.1756,26.28,67.0,13.0,3.23,BR,1627492639.0
545,Jacmel,18.2342,-72.5347,34.91,67.0,67.0,3.32,HT,1627492638.0
544,Kamienna Góra,50.7831,16.0304,22.09,67.0,82.0,2.56,PL,1627492638.0
398,Noyabrsk,63.1994,75.4507,11.62,67.0,82.0,2.23,RU,1627492617.0
522,Batticaloa,7.7102,81.6924,28.43,67.0,97.0,5.46,LK,1627492633.0
459,Oxford,51.7522,-1.256,19.54,67.0,40.0,0.89,GB,1627492600.0
24,Coahuayana Viejo,18.7333,-103.6833,31.71,67.0,89.0,1.07,MX,1627492568.0
356,Narsaq,60.9167,-46.05,12.12,67.0,100.0,2.82,GL,1627492611.0
586,Kassala,15.451,36.4,28.33,68.0,100.0,3.35,SD,1627492643.0
394,Evensk,61.95,159.2333,7.52,68.0,18.0,3.98,RU,1627492616.0
257,Qui Nhon,13.7667,109.2333,29.47,68.0,99.0,6.65,VN,1627492599.0
404,Catemaco,18.4167,-95.1167,28.86,68.0,58.0,1.12,MX,1627492617.0
292,Nampula,-15.1165,39.2666,20.97,68.0,20.0,4.63,MZ,1627492603.0
620,Abbeville,50.1,1.8333,20.83,68.0,44.0,7.42,FR,1627492648.0
199,Edson,53.5835,-116.4356,19.08,68.0,1.0,1.03,CA,1627492591.0
41,Tasiilaq,65.6145,-37.6368,11.09,68.0,85.0,0.88,GL,1627492570.0
39,Rocha,-34.4833,-54.3333,8.15,68.0,93.0,9.14,UY,1627492570.0
40,Olinda,-8.0089,-34.8553,25.85,69.0,40.0,5.14,BR,1627492418.0
447,Monrovia,6.3005,-10.7969,26.87,69.0,100.0,4.63,LR,1627492334.0
263,Kyzyl-Suu,42.3414,78.0056,18.51,69.0,38.0,0.91,KG,1627492599.0
314,Thunder Bay,48.4001,-89.3168,26.27,69.0,40.0,4.63,CA,1627492606.0
233,Lázaro Cárdenas,17.9583,-102.2,29.8,69.0,42.0,0.81,MX,1627492596.0
258,Clyde River,70.4692,-68.5914,7.11,69.0,88.0,1.7,CA,1627492329.0
234,Safi,32.2994,-9.2372,24.47,69.0,9.0,9.45,MA,1627492596.0
555,Hualmay,-11.0964,-77.6139,20.58,69.0,38.0,4.89,PE,1627492640.0
75,Luanda,-8.8368,13.2343,25.0,69.0,0.0,4.12,AO,1627492575.0
310,Pindushi,62.9152,34.58,19.88,69.0,76.0,1.46,RU,1627492605.0
367,Alofi,-19.0595,-169.9187,22.6,69.0,100.0,6.83,NU,1627492489.0
243,Iguape,-24.7081,-47.5553,14.91,69.0,99.0,0.72,BR,1627492597.0
342,Linqiong,30.4159,103.4609,29.9,69.0,91.0,1.97,CN,1627492609.0
210,Otukpo,7.1913,8.1329,27.08,69.0,92.0,1.38,NG,1627492593.0
462,Salinópolis,-0.6136,-47.3561,28.97,69.0,10.0,5.16,BR,1627492625.0
217,Liverpool,53.4106,-2.9779,17.09,69.0,75.0,0.89,GB,1627492594.0
279,Faanui,-16.4833,-151.75,25.39,70.0,69.0,1.09,PF,1627492601.0
196,Fare,-16.7,-151.0167,25.25,70.0,17.0,1.27,PF,1627492591.0
534,Los Algarrobos,8.5,-82.4333,30.81,70.0,40.0,2.06,PA,1627492637.0
506,Pitimbu,-7.4706,-34.8086,29.33,70.0,10.0,5.55,BR,1627492631.0
182,Esperance,-33.8667,121.9,13.25,70.0,36.0,9.43,AU,1627492589.0
105,Hobart,-42.8794,147.3294,7.18,70.0,58.0,1.79,AU,1627492580.0
99,Sistranda,63.7256,8.834,25.98,71.0,68.0,3.83,NO,1627492579.0
16,Hermanus,-34.4187,19.2345,12.11,71.0,26.0,8.52,ZA,1627492360.0
274,Vila do Maio,15.1333,-23.2167,27.44,71.0,82.0,4.22,CV,1627492601.0
351,Cervo,43.6702,-7.4101,22.33,71.0,6.0,3.23,ES,1627492611.0
503,Karratha,-20.7377,116.8463,20.23,71.0,37.0,4.87,AU,1627492631.0
215,Lucea,18.451,-78.1736,30.92,71.0,97.0,5.17,JM,1627492593.0
514,Tadine,-21.55,167.8833,20.27,71.0,99.0,5.34,NC,1627492632.0
502,Cabedelo,-6.9811,-34.8339,29.37,71.0,20.0,6.56,BR,1627492631.0
225,Callaway,30.153,-85.5699,33.32,71.0,75.0,1.79,US,1627492595.0
4,Ancud,-41.8697,-73.8203,6.74,72.0,12.0,1.53,CL,1627492565.0
332,Moncagua,13.5333,-88.25,31.19,72.0,0.0,0.0,SV,1627492608.0
577,Grindavik,63.8424,-22.4338,17.97,72.0,0.0,6.69,IS,1627492642.0
510,Haapiti,-17.5667,-149.8667,21.85,72.0,28.0,2.08,PF,1627492632.0
418,Geraldton,-28.7667,114.6,18.23,72.0,40.0,9.77,AU,1627492619.0
567,Champerico,14.3,-91.9167,31.53,72.0,56.0,1.31,GT,1627492641.0
107,Bonthe,7.5264,-12.505,25.86,73.0,99.0,4.88,SL,1627492580.0
386,Guangyuan,32.442,105.823,23.72,73.0,70.0,1.39,CN,1627492615.0
405,Tiarei,-17.5333,-149.3333,22.01,73.0,15.0,2.06,PF,1627492617.0
203,Broken Hill,-31.95,141.4333,7.07,73.0,0.0,3.53,AU,1627492592.0
476,Liuzhou,24.3126,109.3892,29.23,73.0,22.0,0.5,CN,1627492476.0
372,Tongliao,43.6125,122.2653,24.01,73.0,99.0,0.66,CN,1627492613.0
556,Mumford,5.2618,-0.759,25.1,73.0,92.0,4.19,GH,1627492640.0
435,Saint-Augustin,51.226,-58.6502,19.11,73.0,86.0,7.02,CA,1627492622.0
232,Nouadhibou,20.931,-17.0347,22.99,73.0,1.0,11.32,MR,1627492596.0
124,Ponta do Sol,32.6667,-17.1,25.4,73.0,3.0,0.51,PT,1627492582.0
478,Sadasivpet,17.6212,77.9503,25.93,73.0,100.0,7.96,IN,1627492627.0
9,Butaritari,3.0707,172.7902,27.56,74.0,95.0,4.79,KI,1627492565.0
184,Port Alfred,-33.5906,26.891,16.46,74.0,49.0,2.42,ZA,1627492590.0
370,Bandarbeyla,9.4942,50.8122,25.94,74.0,81.0,12.59,SO,1627492613.0
460,Porto San Giorgio,43.1827,13.7934,35.97,74.0,45.0,3.55,IT,1627492625.0
8,Lüderitz,-26.6481,15.1594,14.66,74.0,0.0,7.99,NA,1627492565.0
104,Tautira,-17.7333,-149.15,22.01,74.0,23.0,2.17,PF,1627492580.0
617,Charlestown,-32.95,151.6667,14.34,74.0,22.0,0.45,AU,1627492648.0
275,Muli,2.9167,73.5667,27.96,74.0,100.0,3.46,MV,1627492601.0
287,Kailua,21.4022,-157.7394,26.19,74.0,75.0,3.6,US,1627492602.0
249,São Filipe,14.8961,-24.4956,24.59,74.0,51.0,5.4,CV,1627492598.0
490,Dalianwan,39.0286,121.695,27.02,74.0,0.0,1.0,CN,1627492629.0
86,Port Lincoln,-34.7333,135.8667,9.85,74.0,9.0,3.95,AU,1627492577.0
573,Half Moon Bay,37.4636,-122.4286,27.68,75.0,75.0,2.06,US,1627492642.0
33,New Norfolk,-42.7826,147.0587,6.99,75.0,55.0,0.89,AU,1627492569.0
508,Omboué,-1.5746,9.2618,24.57,75.0,98.0,4.25,GA,1627492631.0
301,Botro,7.8525,-5.3106,25.71,75.0,99.0,1.34,CI,1627492604.0
495,Wellington,-41.2866,174.7756,8.81,75.0,75.0,1.03,NZ,1627492629.0
318,Flushing,51.4425,3.5736,21.82,75.0,40.0,12.35,NL,1627492486.0
64,East London,-33.0153,27.9116,18.09,75.0,58.0,3.8,ZA,1627492519.0
592,Togur,58.3631,82.8265,12.46,75.0,34.0,2.75,RU,1627492644.0
474,Belomorsk,64.5232,34.7668,15.35,75.0,57.0,3.51,RU,1627492626.0
290,Kloulklubed,7.0419,134.2556,25.28,75.0,91.0,2.01,PW,1627492603.0
68,Hithadhoo,-0.6,73.0833,27.93,75.0,100.0,4.79,MV,1627492574.0
308,Saint Peter,13.25,-59.6167,24.31,75.0,55.0,7.3,BB,1627492605.0
293,Knysna,-34.0363,23.0471,11.88,75.0,99.0,1.55,ZA,1627492275.0
71,Atuona,-9.8,-139.0333,25.08,75.0,68.0,9.68,PF,1627492575.0
165,Coyhaique,-45.5752,-72.0662,6.97,76.0,75.0,0.0,CL,1627492331.0
163,Chui,-33.6971,-53.4616,7.83,76.0,95.0,7.72,UY,1627492587.0
189,Kavieng,-2.5744,150.7967,28.12,76.0,65.0,3.93,PG,1627492590.0
354,Cayenne,4.9333,-52.3333,31.02,76.0,75.0,1.34,GF,1627492611.0
69,Lakselv,70.0513,24.9718,12.9,76.0,20.0,3.6,NO,1627492574.0
346,Ribeira Brava,32.65,-17.0667,25.4,76.0,2.0,0.55,PT,1627492610.0
175,Saint Paul Harbor,57.79,-152.4072,12.73,76.0,90.0,0.0,US,1627492589.0
350,Kachug,53.9606,105.8817,15.72,76.0,9.0,0.43,RU,1627492610.0
512,Cockburn Town,21.4612,-71.1419,27.92,76.0,29.0,8.03,TC,1627492632.0
329,Yokadouma,3.5167,15.05,24.28,76.0,100.0,0.64,CM,1627492608.0
193,Kruisfontein,-34.0033,24.7314,13.27,76.0,100.0,4.27,ZA,1627492591.0
501,Chikwawa,-16.0335,34.8009,18.46,76.0,14.0,1.86,MW,1627492631.0
273,Brunsbüttel,53.9,9.15,23.01,76.0,30.0,0.89,DE,1627492601.0
409,Lagdo,9.05,13.7333,25.13,76.0,75.0,1.79,CM,1627492618.0
309,Sinnamary,5.3833,-52.95,28.09,76.0,34.0,4.73,GF,1627492605.0
201,Ugoofaaru,5.6667,73.0,28.29,76.0,100.0,4.43,MV,1627492592.0
439,Severobaykal'sk,55.65,109.3167,13.81,76.0,62.0,1.26,RU,1627492622.0
52,George Town,5.4112,100.3354,28.96,77.0,20.0,0.45,MY,1627492448.0
84,Tuktoyaktuk,69.4541,-133.0374,8.76,77.0,99.0,3.11,CA,1627492352.0
472,Jālna,19.8333,75.8833,24.4,77.0,100.0,6.85,IN,1627492626.0
463,Stokmarknes,68.5646,14.9108,18.98,77.0,20.0,5.14,NO,1627492625.0
74,Aklavik,68.2191,-135.0107,16.46,77.0,75.0,1.54,CA,1627492575.0
540,Ketchikan,55.3422,-131.6461,16.26,77.0,40.0,3.6,US,1627492637.0
246,Pisco,-13.7,-76.2167,18.9,77.0,0.0,4.12,PE,1627492597.0
5,Norman Wells,65.282,-126.8329,17.02,77.0,75.0,2.57,CA,1627492565.0
280,Sitka,57.0531,-135.33,14.94,77.0,20.0,0.0,US,1627492601.0
145,Goderich,43.7501,-81.7165,24.56,78.0,0.0,4.12,CA,1627492585.0
566,Gizo Government Station,-8.103,156.8419,27.01,78.0,33.0,2.58,SB,1627492641.0
317,Nador,35.174,-2.9287,29.04,78.0,40.0,3.6,MA,1627492606.0
128,Vila Franca do Campo,37.7167,-25.4333,23.23,78.0,61.0,3.17,PT,1627492583.0
564,Shagonar,51.5333,92.8,14.23,78.0,96.0,0.42,RU,1627492641.0
131,Hambantota,6.1241,81.1185,27.01,78.0,56.0,7.85,LK,1627492571.0
11,Puerto Ayora,-0.7393,-90.3518,23.98,78.0,85.0,4.85,EC,1627492566.0
402,Hengyang,26.8881,112.615,26.8,78.0,0.0,1.2,CN,1627492617.0
87,Kapaa,22.0752,-159.319,26.18,78.0,90.0,0.45,US,1627492577.0
38,Severo-Yeniseyskiy,60.3725,93.0408,11.65,78.0,100.0,1.1,RU,1627492570.0
533,Batagay-Alyta,67.8006,130.4114,5.08,78.0,21.0,2.48,RU,1627492636.0
507,Sabang,5.8933,95.3214,28.59,78.0,89.0,10.07,ID,1627492631.0
231,Warwick,41.7001,-71.4162,23.85,78.0,75.0,4.63,US,1627492596.0
449,Beringovskiy,63.05,179.3167,8.29,78.0,100.0,5.5,RU,1627492623.0
28,Rikitea,-23.1203,-134.9692,23.55,78.0,100.0,6.31,PF,1627492569.0
529,Bambanglipuro,-7.95,110.2833,23.77,78.0,47.0,1.64,ID,1627492636.0
202,Sioux Lookout,50.1001,-91.917,25.21,78.0,75.0,2.57,CA,1627492592.0
144,Kavaratti,10.5669,72.642,27.85,79.0,100.0,7.15,IN,1627492585.0
607,Maumere,-8.6199,122.2111,25.62,79.0,19.0,3.39,ID,1627492646.0
47,Konde,-4.95,39.75,23.61,79.0,14.0,6.39,TZ,1627492571.0
89,Labuhan,-6.8844,112.2051,23.83,79.0,15.0,4.31,ID,1627492577.0
531,Kroya,-7.6331,109.2461,24.38,79.0,89.0,2.29,ID,1627492636.0
136,Cherat Cantonement,33.8233,71.8915,21.96,79.0,98.0,4.9,PK,1627492584.0
493,Zhuhai,22.2769,113.5678,30.06,79.0,0.0,0.51,CN,1627492629.0
520,Teya,60.3778,92.6267,13.11,79.0,100.0,0.9,RU,1627492633.0
226,Bradford,53.7939,-1.7521,16.44,79.0,40.0,4.63,GB,1627492554.0
532,Wakimachi,34.0667,134.15,25.68,79.0,0.0,1.64,JP,1627492636.0
261,Lorengau,-2.0226,147.2712,27.65,79.0,29.0,2.72,PG,1627492356.0
457,Sola,-13.8833,167.55,26.06,79.0,47.0,9.27,VU,1627492624.0
2,Oranjestad,12.524,-70.027,28.97,79.0,40.0,6.69,AW,1627492565.0
487,Seymchan,62.8833,152.4333,6.07,79.0,96.0,3.06,RU,1627492628.0
37,Busselton,-33.65,115.3333,13.94,80.0,55.0,10.78,AU,1627492570.0
517,Lamu,-2.2717,40.902,23.12,80.0,67.0,7.65,KE,1627492632.0
615,Takahagi,36.7167,140.7167,25.16,80.0,48.0,1.94,JP,1627492647.0
26,Rio Grande,-32.035,-52.0986,7.06,80.0,95.0,10.37,BR,1627492334.0
53,Nicolás Bravo,18.45,-88.9167,23.49,80.0,40.0,2.11,MX,1627492572.0
161,Los Llanos de Aridane,28.6585,-17.9182,21.86,80.0,75.0,6.69,ES,1627492587.0
155,Kismayo,-0.3582,42.5454,24.58,80.0,92.0,8.87,SO,1627492586.0
316,Henties Bay,-22.116,14.2845,14.92,80.0,0.0,8.77,NA,1627492606.0
333,Sorong,-0.8833,131.25,27.69,80.0,96.0,1.19,ID,1627492608.0
471,Birao,10.2849,22.7882,24.68,80.0,99.0,2.13,CF,1627492626.0
415,Banda Aceh,5.5577,95.3222,27.05,81.0,99.0,6.38,ID,1627492619.0
588,Northam,51.0333,-4.2167,19.79,81.0,6.0,9.41,GB,1627492644.0
132,Chokurdakh,70.6333,147.9167,2.31,81.0,99.0,4.88,RU,1627492583.0
65,Ushuaia,-54.8,-68.3,7.79,81.0,40.0,1.54,AR,1627492297.0
173,Druzhba,52.0428,33.9453,21.7,81.0,67.0,2.37,UA,1627492588.0
433,Giohar,2.7809,45.5005,23.62,81.0,87.0,6.79,SO,1627492621.0
283,Havøysund,70.9963,24.6622,9.49,81.0,100.0,2.98,NO,1627492602.0
154,Varhaug,58.6147,5.6457,18.21,81.0,100.0,6.19,NO,1627492586.0
58,Kaitangata,-46.2817,169.8464,8.85,81.0,41.0,1.97,NZ,1627492572.0
272,Marathon,44.9,-89.7668,27.15,81.0,1.0,0.45,US,1627492600.0
270,Kanniyākumāri,8.0833,77.5667,26.93,81.0,100.0,8.81,IN,1627492600.0
51,Punta Arenas,-53.15,-70.9167,8.06,81.0,0.0,5.66,CL,1627492572.0
311,Namatanai,-3.6667,152.4333,26.12,81.0,91.0,2.15,PG,1627492605.0
392,Ternate,0.8,127.4,27.28,81.0,37.0,1.97,ID,1627492326.0
130,Beihai,21.4833,109.1,29.82,82.0,78.0,4.21,CN,1627492391.0
83,Todos Santos,23.45,-110.2167,35.0,82.0,3.0,3.52,MX,1627492577.0
79,Skjervøy,70.0311,20.9714,10.1,82.0,33.0,5.34,NO,1627492576.0
595,Pantai Remis,4.4557,100.6288,27.2,82.0,68.0,1.17,MY,1627492645.0
345,Pāliyād,22.25,71.5667,26.62,82.0,100.0,8.34,IN,1627492610.0
93,Lima,-12.0432,-77.0282,16.19,82.0,90.0,3.6,PE,1627492441.0
421,Ushibukamachi,32.1906,130.0228,26.07,82.0,0.0,1.3,JP,1627492620.0
206,Sawtell,-30.3833,153.1,16.21,82.0,88.0,1.54,AU,1627492592.0
46,Port Hardy,50.6996,-127.4199,15.1,82.0,20.0,1.54,CA,1627492571.0
197,Port Elizabeth,-33.918,25.5701,14.5,82.0,40.0,4.12,ZA,1627492591.0
297,Hong Kong,22.2855,114.1577,30.21,82.0,67.0,0.45,HK,1627492525.0
454,Lagoa,39.05,-27.9833,22.2,82.0,78.0,3.64,PT,1627492624.0
298,Geelong,-38.1471,144.3607,9.49,82.0,40.0,2.68,AU,1627492604.0
484,Praia da Vitória,38.7333,-27.0667,25.42,83.0,75.0,4.56,PT,1627492627.0
222,Tual,-5.6667,132.75,27.11,83.0,71.0,8.39,ID,1627492595.0
539,Arrondissement de Pau,43.4167,-0.5833,23.91,83.0,90.0,3.6,FR,1627492512.0
3,Vaini,-21.2,-175.2,20.09,83.0,40.0,2.57,TO,1627492565.0
72,Kouroussa,10.65,-9.8833,25.01,83.0,100.0,2.65,GN,1627492575.0
465,Talnakh,69.4865,88.3972,13.74,83.0,100.0,0.53,RU,1627492625.0
561,Oyama,36.3,139.8,27.55,83.0,41.0,1.59,JP,1627492640.0
443,Marawi,7.9986,124.2928,22.03,83.0,98.0,2.46,PH,1627492623.0
340,Mandurah,-32.55,115.7,15.14,83.0,81.0,12.2,AU,1627492609.0
118,Dingle,10.9995,122.6711,25.6,83.0,100.0,3.6,PH,1627492582.0
321,San Policarpo,12.1791,125.5072,26.86,83.0,98.0,2.5,PH,1627492607.0
129,Souillac,-20.5167,57.5167,21.31,83.0,75.0,8.23,MU,1627492583.0
365,Porbandar,21.6422,69.6093,27.85,83.0,100.0,12.05,IN,1627492612.0
393,Mossamedes,-15.1961,12.1522,19.33,83.0,3.0,3.21,AO,1627492616.0
579,Ust-Nera,64.5667,143.2,4.33,83.0,15.0,2.83,RU,1627492643.0
18,Lukovetskiy,64.2956,41.9211,18.99,83.0,52.0,3.18,RU,1627492436.0
133,Bambous Virieux,-20.3428,57.7575,21.23,83.0,75.0,8.23,MU,1627492584.0
348,Bubaque,11.2833,-15.8333,26.17,84.0,100.0,7.51,GW,1627492610.0
137,Puerto Cabezas,14.0351,-83.3888,29.98,84.0,75.0,2.06,NI,1627492584.0
291,Quatre Cocos,-20.2078,57.7625,21.16,84.0,100.0,10.78,MU,1627492603.0
7,Kawalu,-7.3817,108.2082,21.69,84.0,81.0,0.21,ID,1627492565.0
221,Hofn,64.2539,-15.2082,12.44,84.0,55.0,1.76,IS,1627492594.0
326,Nikolskoye,59.7035,30.7861,20.78,84.0,100.0,1.4,RU,1627492607.0
315,Gari,59.4307,62.3497,7.37,84.0,82.0,3.1,RU,1627492606.0
608,Hirtshals,57.5881,9.9592,19.9,84.0,61.0,4.83,DK,1627492451.0
102,Torbay,47.6666,-52.7314,24.86,84.0,75.0,7.2,CA,1627492579.0
369,Maniitsoq,65.4167,-52.9,7.91,84.0,43.0,7.81,GL,1627492613.0
516,Beşikdüzü,41.052,39.2284,25.94,84.0,12.0,5.86,TR,1627492563.0
338,Māngrol,21.1167,70.1167,27.74,84.0,100.0,11.22,IN,1627492609.0
349,Caucayá,-0.1934,-74.7819,27.51,84.0,79.0,1.45,CO,1627492610.0
358,Bengkulu,-3.8004,102.2655,24.16,84.0,86.0,2.39,ID,1627492611.0
425,Umiray,15.2206,121.4111,27.51,84.0,100.0,3.92,PH,1627492620.0
473,Honmachi,32.5,130.6,25.5,84.0,1.0,1.15,JP,1627492626.0
239,Biak,-0.9131,122.8766,24.56,85.0,81.0,2.54,ID,1627492597.0
479,Malinovskiy,61.1953,62.8397,6.72,85.0,93.0,4.11,RU,1627492627.0
281,Vostok,46.4856,135.8833,21.61,85.0,93.0,1.69,RU,1627492601.0
306,Nanortalik,60.1432,-45.2371,8.26,85.0,44.0,5.89,GL,1627492605.0
94,Mahébourg,-20.4081,57.7,21.25,85.0,100.0,11.08,MU,1627492337.0
422,Kirakira,-10.4544,161.9205,25.77,85.0,44.0,3.35,SB,1627492620.0
388,Karabulak,43.3036,44.8964,18.55,86.0,94.0,1.01,RU,1627492615.0
376,Saint-Joseph,-21.3667,55.6167,22.21,86.0,100.0,8.82,RE,1627492613.0
268,Ljungby,56.8332,13.9408,20.44,86.0,96.0,3.54,SE,1627492600.0
269,Sittwe,20.15,92.9,27.51,86.0,100.0,7.07,MM,1627492600.0
609,Luancheng,37.8792,114.6517,25.09,86.0,100.0,2.8,CN,1627492647.0
574,Singkang,2.1006,102.7994,25.94,86.0,78.0,1.29,MY,1627492642.0
389,Amboasary,-25.0333,46.3833,19.91,86.0,7.0,4.19,MG,1627492615.0
35,Port Keats,-14.25,129.55,21.65,86.0,27.0,1.66,AU,1627492570.0
429,Port Blair,11.6667,92.75,27.79,86.0,100.0,8.25,IN,1627492621.0
88,Aksha,50.2814,113.2867,13.69,86.0,17.0,0.82,RU,1627492577.0
527,Lowestoft,52.4752,1.7516,19.2,86.0,52.0,9.11,GB,1627492464.0
420,Claveria,18.6074,121.0832,26.31,86.0,86.0,3.38,PH,1627492620.0
481,Nantucket,41.2835,-70.0995,23.08,87.0,25.0,7.82,US,1627492510.0
580,Mehamn,71.0357,27.8492,9.1,87.0,90.0,3.28,NO,1627492643.0
236,Itoman,26.1247,127.6694,28.01,87.0,75.0,2.06,JP,1627492533.0
31,Larsnes,62.2028,5.5773,21.0,87.0,100.0,1.31,NO,1627492569.0
437,Berlevåg,70.8578,29.0864,9.0,87.0,75.0,2.06,NO,1627492622.0
400,Paamiut,61.994,-49.6678,6.66,87.0,15.0,3.95,GL,1627492617.0
119,Katsuura,35.1333,140.3,27.28,87.0,11.0,7.95,JP,1627492582.0
82,Longyearbyen,78.2186,15.6401,6.91,87.0,90.0,5.14,SJ,1627492577.0
497,Mount Gambier,-37.8333,140.7667,8.95,87.0,90.0,7.72,AU,1627492630.0
575,Banjar,-8.19,114.9675,25.92,87.0,25.0,2.45,ID,1627492642.0
288,Pacific Grove,36.6177,-121.9166,23.68,87.0,20.0,2.68,US,1627492603.0
373,Port Macquarie,-31.4333,152.9167,14.98,87.0,76.0,3.23,AU,1627492357.0
565,Matara,5.9485,80.5353,26.06,87.0,48.0,5.02,LK,1627492641.0
109,Chkalovskoye,44.8392,133.0436,22.44,87.0,55.0,2.68,RU,1627492316.0
371,Padang,-0.9492,100.3543,25.03,87.0,99.0,1.24,ID,1627492613.0
106,Kununurra,-15.7667,128.7333,19.99,88.0,77.0,0.0,AU,1627492580.0
34,Abhā,18.2164,42.5053,18.14,88.0,62.0,6.17,SA,1627492515.0
359,Roald,62.5833,6.1333,22.03,88.0,20.0,1.54,NO,1627492612.0
530,Gravdal,68.1214,13.5031,18.82,88.0,20.0,6.17,NO,1627492636.0
247,Sørland,67.667,12.6934,14.04,88.0,83.0,9.71,NO,1627492598.0
207,Galle,6.0367,80.217,26.52,88.0,39.0,5.81,LK,1627492339.0
526,Oistins,13.0667,-59.5333,25.05,88.0,75.0,11.83,BB,1627492635.0
191,Lompoc,34.6391,-120.4579,22.08,88.0,90.0,3.6,US,1627492590.0
284,Hasaki,35.7333,140.8333,25.16,88.0,9.0,8.64,JP,1627492602.0
20,Bluff,-46.6,168.3333,6.56,88.0,42.0,4.1,NZ,1627492567.0
323,Tazovsky,67.4667,78.7,9.18,88.0,23.0,4.33,RU,1627492607.0
576,Mujiayingzi,42.1167,118.7833,21.01,88.0,100.0,1.36,CN,1627492642.0
54,Meulaboh,4.1363,96.1285,25.0,88.0,40.0,1.47,ID,1627492572.0
557,Khovu-Aksy,51.1333,93.6,9.4,88.0,71.0,1.45,RU,1627492640.0
110,Prince Rupert,54.3161,-130.3201,14.83,88.0,100.0,0.0,CA,1627492581.0
334,Bathsheba,13.2167,-59.5167,25.34,88.0,75.0,11.83,BB,1627492608.0
401,Codrington,-38.2667,141.9667,6.57,89.0,28.0,5.88,AU,1627492617.0
282,Salalah,17.0151,54.0924,27.05,89.0,90.0,4.12,OM,1627492369.0
48,Dandong,40.1292,124.3947,24.12,89.0,95.0,0.7,CN,1627492571.0
426,Shimoda,34.6667,138.95,25.06,89.0,21.0,5.17,JP,1627492620.0
44,Cherskiy,68.75,161.3,2.59,89.0,92.0,4.52,RU,1627492571.0
204,Wanning,18.8003,110.3967,26.99,89.0,100.0,1.16,CN,1627492592.0
614,Havelock,34.8791,-76.9013,30.01,89.0,75.0,4.63,US,1627492647.0
543,Mersing,2.4312,103.8405,25.95,89.0,71.0,1.03,MY,1627492638.0
80,Upernavik,72.7868,-56.1549,6.39,89.0,100.0,6.12,GL,1627492576.0
143,Saint-Philippe,-21.3585,55.7679,22.77,89.0,100.0,8.12,RE,1627492494.0
610,Tulsīpur,28.131,82.2973,22.26,90.0,99.0,1.19,NP,1627492647.0
587,Krasnosel'kup,65.7,82.4667,8.71,90.0,35.0,3.74,RU,1627492644.0
563,Suileng,47.25,127.0833,21.0,90.0,95.0,1.84,CN,1627492641.0
120,Tabuk,17.4189,121.4443,24.49,90.0,100.0,1.19,PH,1627492582.0
98,Wanaka,-44.7,169.15,3.67,90.0,24.0,1.48,NZ,1627492579.0
148,Auki,-8.7676,160.7034,24.43,90.0,96.0,1.67,SB,1627492585.0
141,Tuatapere,-46.1333,167.6833,6.57,90.0,37.0,2.66,NZ,1627492584.0
138,Kahului,20.8947,-156.47,24.91,90.0,40.0,6.69,US,1627492584.0
341,Vanimo,-2.6741,141.3028,25.33,90.0,31.0,2.16,PG,1627492609.0
187,Amahai,-3.3333,128.9167,25.66,90.0,50.0,0.63,ID,1627492590.0
496,Gornopravdinsk,60.05,69.9,8.67,90.0,97.0,2.08,RU,1627492629.0
209,Naze,28.3667,129.4833,25.14,90.0,29.0,3.57,JP,1627492593.0
441,Maningrida,-12.0667,134.2667,20.48,90.0,21.0,3.47,AU,1627492622.0
296,Isabela,6.7085,121.9711,26.08,90.0,74.0,1.96,PH,1627492604.0
90,Kodinsk,58.6881,99.1844,17.36,90.0,46.0,1.82,RU,1627492578.0
108,Te Anau,-45.4167,167.7167,4.6,91.0,30.0,0.95,NZ,1627492580.0
276,Handan,36.6006,114.4678,22.99,91.0,100.0,4.58,CN,1627492601.0
12,Qaanaaq,77.484,-69.3632,7.43,91.0,100.0,5.25,GL,1627492566.0
190,Thongwa,16.7619,96.5278,27.09,91.0,99.0,3.16,MM,1627492590.0
238,Jhānsi,25.4333,78.5833,25.48,91.0,100.0,4.2,IN,1627492596.0
513,Kerema,-7.9631,145.7785,25.1,91.0,93.0,1.55,PG,1627492632.0
32,Hilo,19.7297,-155.09,24.33,91.0,90.0,3.09,US,1627492351.0
489,Usinsk,65.9939,57.5281,7.68,91.0,100.0,3.83,RU,1627492027.0
613,Zemio,5.0314,25.1361,21.7,92.0,92.0,0.64,CF,1627492647.0
6,Tambovka,50.0969,128.0489,19.06,92.0,85.0,2.69,RU,1627492565.0
295,Kyshtovka,56.555,76.6271,13.45,92.0,81.0,2.71,RU,1627492603.0
419,Kviteseid,59.4022,8.4927,18.94,92.0,100.0,2.09,NO,1627492620.0
585,Erdenet,49.0333,104.0833,13.82,92.0,98.0,1.38,MN,1627492643.0
440,Aki,33.5,133.9,24.28,93.0,13.0,1.39,JP,1627492622.0
156,Anadyr,64.75,177.4833,8.28,93.0,75.0,6.71,RU,1627492586.0
149,Barrow,71.2906,-156.7887,4.01,93.0,90.0,7.72,US,1627492585.0
223,Dargaville,-35.9333,173.8833,11.12,93.0,72.0,2.03,NZ,1627492595.0
322,Vágur,61.4732,-6.8119,11.55,93.0,100.0,5.16,FO,1627492607.0
142,Brae,60.3964,-1.353,12.95,93.0,97.0,5.32,GB,1627492585.0
27,Aksarka,66.5606,67.7975,7.16,93.0,56.0,3.4,RU,1627492568.0
220,Raja,8.4596,25.678,22.03,93.0,60.0,1.33,SS,1627492594.0
244,Klaksvík,62.2266,-6.589,12.51,93.0,96.0,4.18,FO,1627492597.0
399,Nome,64.5011,-165.4064,11.04,93.0,90.0,8.23,US,1627492617.0
417,Laas,46.6166,10.7002,22.01,93.0,99.0,1.81,IT,1627492619.0
61,Vardø,70.3705,31.1107,9.11,93.0,75.0,2.57,NO,1627492573.0
242,Omsukchan,62.5333,155.8,4.62,93.0,100.0,1.71,RU,1627492597.0
368,Tura,25.5198,90.2201,23.81,93.0,91.0,3.69,IN,1627492613.0
159,Okhotsk,59.3833,143.3,12.62,93.0,99.0,3.81,RU,1627492587.0
330,Mariehamn,60.0973,19.9348,19.92,94.0,20.0,2.57,AX,1627492584.0
185,Yambio,4.5721,28.3955,20.89,94.0,41.0,1.26,SS,1627492590.0
304,Dikson,73.5069,80.5464,3.29,94.0,74.0,5.89,RU,1627492328.0
245,Pangody,65.85,74.4859,9.68,94.0,86.0,2.3,RU,1627492597.0
265,Fairbanks,64.8378,-147.7164,14.22,94.0,90.0,2.57,US,1627492600.0
49,Avarua,-21.2078,-159.775,20.03,94.0,33.0,1.03,CK,1627492571.0
550,Manado,1.487,124.8455,25.43,94.0,20.0,1.03,ID,1627492639.0
549,Mudgere,13.1333,75.6333,18.74,94.0,97.0,2.42,IN,1627492639.0
548,Seoul,37.5683,126.9778,26.69,94.0,78.0,0.51,KR,1627492540.0
241,Kendari,-3.945,122.4989,23.64,94.0,45.0,1.44,ID,1627492597.0
81,Belyy Yar,53.6039,91.3903,12.94,94.0,0.0,2.0,RU,1627492576.0
77,Yar-Sale,66.8333,70.8333,7.6,94.0,76.0,2.26,RU,1627492576.0
121,Arraial do Cabo,-22.9661,-42.0278,22.98,94.0,90.0,5.66,BR,1627492582.0
125,Ryazanovskiy,55.55,39.4333,16.55,94.0,100.0,1.57,RU,1627492583.0
192,Rauma,61.1272,21.5113,19.02,95.0,100.0,5.2,FI,1627492591.0
578,Esso,55.9333,158.7,12.33,95.0,72.0,1.09,RU,1627492642.0
504,Tiksi,71.6872,128.8694,2.53,95.0,59.0,2.38,RU,1627492355.0
160,College,64.8569,-147.8028,14.21,95.0,90.0,2.57,US,1627492587.0
488,Ouadda,8.0777,22.4007,21.16,95.0,55.0,1.03,CF,1627492628.0
477,Kresttsy,58.2452,32.5165,19.63,95.0,100.0,1.93,RU,1627492627.0
92,Toora-Khem,52.4675,96.11,11.33,95.0,100.0,2.02,RU,1627492578.0
320,Kiri Buru,22.0833,85.35,23.05,96.0,100.0,5.04,IN,1627492607.0
319,Medyn',54.9692,35.8586,19.96,96.0,100.0,3.92,RU,1627492606.0
152,Dok Kham Tai,19.1624,99.9934,23.85,96.0,99.0,1.66,TH,1627492586.0
139,Payakumbuh,-0.2202,100.6308,21.48,97.0,99.0,1.58,ID,1627492584.0
589,Kaiwaka,-36.1667,174.45,12.05,97.0,63.0,1.48,NZ,1627492644.0
494,Popondetta,-8.7537,148.2534,22.45,97.0,100.0,0.97,PG,1627492629.0
491,Yining,29.0361,114.5636,23.99,97.0,45.0,1.03,CN,1627492629.0
70,Mount Hagen,-5.8581,144.2274,13.81,97.0,65.0,0.45,PG,1627492574.0
22,Mataura,-46.1927,168.8643,6.38,97.0,35.0,1.73,NZ,1627492568.0
266,Severo-Kuril'sk,50.6789,156.125,12.92,97.0,100.0,3.58,RU,1627492600.0
468,Pevek,69.7008,170.3133,0.7,97.0,100.0,10.36,RU,1627492621.0
515,Husavik,66.0449,-17.3389,8.95,98.0,100.0,4.9,IS,1627492632.0
384,Provideniya,64.3833,-173.3,8.24,99.0,100.0,3.69,RU,1627492615.0
374,Leningradskiy,69.3833,178.4167,0.69,99.0,100.0,7.43,RU,1627492613.0
178,Srednekolymsk,67.45,153.6833,2.47,99.0,100.0,4.12,RU,1627492589.0
352,Tōno,39.3167,141.5333,21.16,99.0,96.0,1.19,JP,1627492611.0
235,Nemuro,43.3236,145.575,18.7,99.0,47.0,3.05,JP,1627492596.0
339,Lavrentiya,65.5833,-171.0,6.45,99.0,100.0,3.76,RU,1627492609.0
466,Neiafu,-18.65,-173.9833,21.38,100.0,75.0,0.0,TO,1627492625.0
1,,,,,,,,,
17,,,,,,,,,
29,,,,,,,,,
45,,,,,,,,,
60,,,,,,,,,
62,,,,,,,,,
66,,,,,,,,,
101,,,,,,,,,
112,,,,,,,,,
140,,,,,,,,,
150,,,,,,,,,
157,,,,,,,,,
158,,,,,,,,,
212,,,,,,,,,
227,,,,,,,,,
285,,,,,,,,,
313,,,,,,,,,
327,,,,,,,,,
347,,,,,,,,,
364,,,,,,,,,
390,,,,,,,,,
396,,,,,,,,,
407,,,,,,,,,
408,,,,,,,,,
410,,,,,,,,,
411,,,,,,,,,
424,,,,,,,,,
427,,,,,,,,,
436,,,,,,,,,
452,,,,,,,,,
453,,,,,,,,,
455,,,,,,,,,
461,,,,,,,,,
475,,,,,,,,,
492,,,,,,,,,
509,,,,,,,,,
518,,,,,,,,,
528,,,,,,,,,
538,,,,,,,,,
541,,,,,,,,,
562,,,,,,,,,
581,,,,,,,,,
596,,,,,,,,,
616,,,,,,,,,
